[
  {"location_name": "Karwar Port", "district": "Uttara Kannada", "latitude": 14.8105, "longitude": 74.1258},
  {"location_name": "Kumta Backwaters", "district": "Uttara Kannada", "latitude": 14.4253, "longitude": 74.4024},
  {"location_name": "Honnavar Estuary", "district": "Uttara Kannada", "latitude": 14.2811, "longitude": 74.4441},
  {"location_name": "Gangolli Backwaters", "district": "Udupi", "latitude": 13.6425, "longitude": 74.6710},
  {"location_name": "Malpe Fishing Harbor", "district": "Udupi", "latitude": 13.3486, "longitude": 74.6961},
  {"location_name": "Mangaluru Bengre", "district": "Dakshina Kannada", "latitude": 12.8656, "longitude": 74.8214}
]
